name,date_time,datum,height,lat,lon,quality_flags,sensor,sigma,station,water_surface_height_above_reference_datum,bad_station
"Duck, NC",2015-10-31T12:00:00Z,MLLW,5.663,36.1831,-75.7467,0;0;0;0,A1,0.207,8651370,0.706,False
"Oregon Inlet Marina, NC",2015-10-31T12:00:00Z,MLLW,0.788,35.7942,-75.5481,0;0;0;0,A1,0.001,8652587,0.295,False
"USCG Station Hatteras, NC",2015-10-31T12:00:00Z,MLLW,8.345,35.2086,-75.7042,0;0;0;0,A1,0.002,8654467,0.336,True
"Beaufort, NC",2015-10-31T12:00:00Z,MLLW,0.562,34.72,-76.67,0;0;0;0,A1,0.005,8656483,0.667,True
"Wilmington, NC",2015-10-31T12:00:00Z,MLLW,0.747,34.2267,-77.9533,0;0;0;0,A1,0.003,8658120,0.153,True
"Wrightsville Beach, NC",2015-10-31T12:00:00Z,MLLW,5.793,34.21,-77.7867,0;0;0;0,A1,0.123,8658163,0.964,False
"Springmaid Pier, SC",2015-10-31T12:00:00Z,MLLW,8.928,33.655,-78.9183,0;0;0;0,A1,0.07,8661070,1.147,False
"Oyster Landing (N Inlet Estuary), SC",2015-10-31T12:00:00Z,MLLW,1.215,33.3517,-79.1867,0;0;0;0,A1,0.004,8662245,0.765,False
"Charleston, SC",2015-10-31T12:00:00Z,MLLW,0.843,32.7817,-79.925,0;0;0;0,A1,0.008,8665530,1.061,False
"Fort Pulaski, GA",2015-10-31T12:00:00Z,MLLW,1.066,32.0367,-80.9017,0;0;0;0,A1,0.013,8670870,1.07,False
"Fernandina Beach, FL",2015-10-31T12:00:00Z,MLLW,0.518,30.6714,-81.4658,0;0;0;0,A1,0.006,8720030,0.726,False
"Mayport (Bar Pilots Dock), FL",2015-10-31T12:00:00Z,MLLW,2.763,30.3981,-81.4278,0;0;0;0,A1,0.005,8720218,0.683,False
"Dames Point, FL",2015-10-31T12:00:00Z,MLLW,1.151,30.3872,-81.5592,0;0;0;0,A1,0.004,8720219,0.316,False
"Southbank Riverwalk, St Johns River, FL",2015-10-31T12:00:00Z,MLLW,-0.418,30.32,-81.6583,0;0;0;0,Y1,0.002,8720226,0.252,False
"I-295 Bridge, St Johns River, FL",2015-10-31T12:00:00Z,MLLW,-0.198,30.1925,-81.6889,0;0;0;0,A1,0.001,8720357,0.297,False
"Red Bay Point, St Johns River, FL",2015-10-31T12:00:00Z,MLLW,-0.175,29.9783,-81.6283,0;0;0;0,Y1,0.002,8720503,0.345,False
"Racy Point, St Johns River, FL",2015-10-31T12:00:00Z,MLLW,-0.191,29.8017,-81.5483,0;0;0;0,A1,0.001,8720625,0.473,False
"Trident Pier, FL",2015-10-31T12:00:00Z,MLLW,5.48,28.4158,-80.5931,0;0;0;0,A1,0.008,8721604,0.755,False
"Lake Worth Pier, FL",2015-10-31T12:00:00Z,MLLW,9.142,26.6117,-80.0333,0;0;0;0,A1,0.09,8722670,0.598,False
"Virginia Key, FL",2015-10-31T12:00:00Z,MLLW,3.096,25.7314,-80.1617,0;0;0;0,A1,0.003,8723214,0.305,False
"Vaca Key, FL",2015-10-31T12:00:00Z,MLLW,0.775,24.7106,-81.1064,0;0;0;0,A1,0.002,8723970,0.333,False
"Key West, FL",2015-10-31T12:00:00Z,MLLW,1.39,24.5558,-81.8078,0;0;0;0,A1,0.008,8724580,0.211,False
"Naples, FL",2015-10-31T12:00:00Z,MLLW,0.653,26.1317,-81.8075,0;0;0;0,A1,0.008,8725110,0.433,False
"Fort Myers, FL",2015-10-31T12:00:00Z,MLLW,1.329,26.6475,-81.8711,0;0;0;0,A1,0.002,8725520,0.621,False
"Port Manatee, FL",2015-10-31T12:00:00Z,MLLW,0.062,27.6364,-82.5628,0;0;0;0,A1,0.008,8726384,0.519,False
"St Petersburg, FL",2015-10-31T12:00:00Z,MLLW,1.028,27.7611,-82.6269,0;0;0;0,A1,0.004,8726520,0.652,True
"Old Port Tampa, FL",2015-10-31T12:00:00Z,MLLW,8.621,27.8578,-82.5519,0;0;0;0,A1,0.003,8726607,0.739,True
"Mckay Bay Entrance, FL",2015-10-31T12:00:00Z,MLLW,0.081,27.9136,-82.4244,0;0;0;0,A1,0.006,8726667,0.728,False
"Clearwater Beach, FL",2015-10-31T12:00:00Z,MLLW,0.528,27.9781,-82.8317,0;0;0;0,A1,0.033,8726724,0.329,False
"Cedar Key, FL",2015-10-31T12:00:00Z,MLLW,0.55,29.1344,-83.0311,0;0;0;0,A1,0.003,8727520,0.837,False
"Apalachicola, FL",2015-10-31T12:00:00Z,MLLW,1.307,29.7244,-84.9806,0;0;0;0,A1,0.002,8728690,0.714,False
"Panama City, FL",2015-10-31T12:00:00Z,MLLW,1.019,30.1522,-85.6669,0;0;0;0,A1,0.002,8729108,0.379,False
"Panama City Beach, FL",2015-10-31T12:00:00Z,MLLW,8.236,30.2139,-85.8786,0;0;0;0,A1,0.024,8729210,0.316,True
"Pensacola, FL",2015-10-31T12:00:00Z,MLLW,2.569,30.4044,-87.2111,0;0;0;0,A1,0.002,8729840,0.502,False
Tolomato River station,2015-00-31T12:00:00Z,,,29.9947223663,-81.3295593262,,NA,,fldep.tolomatoriver.,-0.031761135906,False
Bing's Landing station,2015-00-31T12:00:00Z,,,29.6154174805,-81.2049179077,,NA,,fldep.bingslanding.,-0.00649083266035,False
Naples Bay station,2015-00-31T12:00:00Z,,,26.1417789459,-81.7900543213,,NA,,fldep.naplesbay.,0.0676064044237,False
St Lucie Inlet station,2015-00-31T12:00:00Z,,,27.1652774811,-80.1627807617,,NA,,fldep.stlucieinlet.,-0.970622479916,False
Binney Dock station,2015-00-31T12:00:00Z,,,27.467546463,-80.3008499146,,NA,,fldep.binneydock.,-0.230897381902,False
Ponce De Leon South station,2015-00-31T12:00:00Z,,,29.0634727478,-80.9160842896,,NA,,fldep.poncedeleonsouth.,-0.155120387673,False
