name,date_time,datum,height,lat,lon,quality_flags,sensor,sigma,station,water_surface_height_above_reference_datum,bad_station
"Duck, NC",2015-12-12T12:00:00Z,MLLW,5.663,36.1831,-75.7467,1;0;0;0,A1,0.136,8651370,1.208,True
"Oregon Inlet Marina, NC",2015-12-12T12:00:00Z,MLLW,0.788,35.7942,-75.5481,1;0;0;0,A1,0.002,8652587,0.444,False
"USCG Station Hatteras, NC",2015-12-12T12:00:00Z,MLLW,8.345,35.2086,-75.7042,1;0;0;0,A1,0.001,8654467,0.268,True
"Beaufort, NC",2015-12-12T12:00:00Z,MLLW,0.562,34.72,-76.67,0;0;0;0,A1,0.002,8656483,1.181,True
"Wrightsville Beach, NC",2015-12-12T12:00:00Z,MLLW,5.793,34.21,-77.7867,0;0;0;0,A1,0.112,8658163,1.463,True
"Springmaid Pier, SC",2015-12-12T12:00:00Z,MLLW,8.928,33.655,-78.9183,0;0;0;0,A1,0.09,8661070,1.824,False
"Oyster Landing (N Inlet Estuary), SC",2015-12-12T12:00:00Z,MLLW,1.215,33.3517,-79.1867,0;0;0;0,A1,0.004,8662245,1.306,True
"Charleston, SC",2015-12-12T12:00:00Z,MLLW,0.843,32.7817,-79.925,1;0;0;0,A1,0.004,8665530,1.806,False
"Fort Pulaski, GA",2015-12-12T12:00:00Z,MLLW,1.066,32.0367,-80.9017,0;0;0;0,A1,0.011,8670870,2.295,False
"Fernandina Beach, FL",2015-12-12T12:00:00Z,MLLW,0.518,30.6714,-81.4658,0;0;0;0,A1,0.005,8720030,1.747,False
"Mayport (Bar Pilots Dock), FL",2015-12-12T12:00:00Z,MLLW,2.763,30.3981,-81.4278,1;0;0;0,A1,0.007,8720218,1.414,True
"Dames Point, FL",2015-12-12T12:00:00Z,MLLW,1.151,30.3872,-81.5592,1;0;0;0,A1,0.006,8720219,1.041,True
"Southbank Riverwalk, St Johns River, FL",2015-12-12T12:00:00Z,MLLW,-0.418,30.32,-81.6583,0;0;0;0,Y1,0.007,8720226,0.545,False
"I-295 Bridge, St Johns River, FL",2015-12-12T12:00:00Z,MLLW,-0.198,30.1925,-81.6889,1;0;0;0,A1,0.001,8720357,0.255,False
"Red Bay Point, St Johns River, FL",2015-12-12T12:00:00Z,MLLW,-0.175,29.9783,-81.6283,1;0;0;0,Y1,0.002,8720503,0.225,False
"Racy Point, St Johns River, FL",2015-12-12T12:00:00Z,MLLW,-0.191,29.8017,-81.5483,1;0;0;0,A1,0.001,8720625,0.283,False
"Trident Pier, FL",2015-12-12T12:00:00Z,MLLW,5.48,28.4158,-80.5931,1;0;0;0,A1,0.006,8721604,1.367,False
"Lake Worth Pier, FL",2015-12-12T12:00:00Z,MLLW,9.142,26.6117,-80.0333,0;0;0;0,A1,0.105,8722670,1.11,False
"Virginia Key, FL",2015-12-12T12:00:00Z,MLLW,3.096,25.7314,-80.1617,1;0;0;0,A1,0.006,8723214,0.649,False
"Vaca Key, FL",2015-12-12T12:00:00Z,MLLW,0.775,24.7106,-81.1064,1;0;0;0,A1,0.002,8723970,0.173,False
"Key West, FL",2015-12-12T12:00:00Z,MLLW,1.39,24.5558,-81.8078,1;0;0;0,A1,0.007,8724580,0.309,False
"Naples, FL",2015-12-12T12:00:00Z,MLLW,0.653,26.1317,-81.8075,0;0;0;0,A1,0.011,8725110,-0.007,False
"Fort Myers, FL",2015-12-12T12:00:00Z,MLLW,1.329,26.6475,-81.8711,1;0;0;0,A1,0.001,8725520,0.396,False
"Port Manatee, FL",2015-12-12T12:00:00Z,MLLW,0.062,27.6364,-82.5628,1;0;0;0,A1,0.012,8726384,0.1,False
"St Petersburg, FL",2015-12-12T12:00:00Z,MLLW,1.028,27.7611,-82.6269,0;0;0;0,A1,0.005,8726520,0.213,True
"Old Port Tampa, FL",2015-12-12T12:00:00Z,MLLW,8.621,27.8578,-82.5519,1;0;0;0,A1,0.002,8726607,0.284,True
"Mckay Bay Entrance, FL",2015-12-12T12:00:00Z,MLLW,0.081,27.9136,-82.4244,1;0;0;0,A1,0.002,8726667,0.265,False
"Clearwater Beach, FL",2015-12-12T12:00:00Z,MLLW,0.528,27.9781,-82.8317,1;0;0;0,A1,0.014,8726724,0.031,False
"Cedar Key, FL",2015-12-12T12:00:00Z,MLLW,0.55,29.1344,-83.0311,0;0;0;0,A1,0.003,8727520,0.135,False
"Apalachicola, FL",2015-12-12T12:00:00Z,MLLW,1.307,29.7244,-84.9806,1;0;0;0,A1,0.002,8728690,0.331,False
"Panama City, FL",2015-12-12T12:00:00Z,MLLW,1.019,30.1522,-85.6669,1;0;0;0,A1,0.005,8729108,0.144,False
"Panama City Beach, FL",2015-12-12T12:00:00Z,MLLW,8.236,30.2139,-85.8786,0;0;0;0,A1,0.039,8729210,0.09,True
"Pensacola, FL",2015-12-12T12:00:00Z,MLLW,2.569,30.4044,-87.2111,1;0;0;0,A1,0.001,8729840,0.274,False
Tolomato River station,2015-00-12T12:00:00Z,,,29.9947223663,-81.3295593262,,NA,,fldep.tolomatoriver.,-0.0769872441888,False
Bing's Landing station,2015-00-12T12:00:00Z,,,29.6154174805,-81.2049179077,,NA,,fldep.bingslanding.,-0.0168745499104,False
Naples Bay station,2015-54-12T11:54:00Z,,,26.1417789459,-81.7900543213,,NA,,fldep.naplesbay.,0.0875542163849,False
St Lucie Inlet station,2015-00-12T12:00:00Z,,,27.1652774811,-80.1627807617,,NA,,fldep.stlucieinlet.,-0.262904286385,False
Binney Dock station,2015-00-12T12:00:00Z,,,27.467546463,-80.3008499146,,NA,,fldep.binneydock.,-0.246695563197,False
Ponce De Leon South station,2015-00-12T12:00:00Z,,,29.0634727478,-80.9160842896,,NA,,fldep.poncedeleonsouth.,-0.132610440254,False
